{"results":[{"categories":[{"id":17089,"name":"Gift Store","icon":{"prefix":"https://ss3.4sqi.net/img/categories_v2/shops/giftshop_","suffix":".png"}}],"distance":85,"location":{"address":"165 Princess St","country":"CA","cross_street":"btw Wellington & King","formatted_address":"165 Princess St (btw Wellington & King), Kingston ON K7L 1A9","locality":"Kingston","neighborhood":["Sydenham"],"postcode":"K7L 1A9","region":"ON"},"name":"Minotaur Games & Gifts","popularity":0.8620689655172413,"rating":8.4},{"categories":[{"id":17034,"name":"Discount Store","icon":{"prefix":"https://ss3.4sqi.net/img/categories_v2/shops/discountstore_","suffix":".png"}}],"distance":64,"location":{"address":"176 Princess St","country":"CA","cross_street":"Montreal Street","formatted_address":"176 Princess St (Montreal Street), Kingston ON K7L 1B1","locality":"Kingston","neighborhood":["Sydenham"],"postcode":"K7L 1B1","region":"ON"},"name":"Dollarama","popularity":0.934592227695676,"rating":7.3},{"categories":[{"id":13002,"name":"Bakery","icon":{"prefix":"https://ss3.4sqi.net/img/categories_v2/food/bakery_","suffix":".png"}},{"id":13034,"name":"Café","icon":{"prefix":"https://ss3.4sqi.net/img/categories_v2/food/cafe_","suffix":".png"}}],"distance":134,"location":{"address":"166 Princess St","country":"CA","cross_street":"Bagot Street","formatted_address":"166 Princess St (Bagot Street), Kingston ON K7L 1B1","locality":"Kingston","neighborhood":["Kingston"],"postcode":"K7L 1B1","region":"ON"},"name":"Crave Coffee House & Bakery","popularity":0.9579912424740011,"price":1,"rating":8.0},{"categories":[{"id":13044,"name":"Frozen Yogurt Shop","icon":{"prefix":"https://ss3.4sqi.net/img/categories_v2/food/frozenyogurt_","suffix":".png"}},{"id":13065,"name":"Restaurant","icon":{"prefix":"https://ss3.4sqi.net/img/categories_v2/food/default_","suffix":".png"}}],"distance":123,"location":{"address":"241 Princess St","country":"CA","cross_street":"at Sydenham St","formatted_address":"241 Princess St (at Sydenham St), Kingston ON K7L 1B3","locality":"Kingston","neighborhood":["Queens"],"postcode":"K7L 1B3","region":"ON"},"name":"Menchie's","popularity":0.8155446086480569,"price":1,"rating":7.7},{"categories":[{"id":13029,"name":"Brewery","icon":{"prefix":"https://ss3.4sqi.net/img/categories_v2/food/brewery_","suffix":".png"}},{"id":13065,"name":"Restaurant","icon":{"prefix":"https://ss3.4sqi.net/img/categories_v2/food/default_","suffix":".png"}}],"distance":199,"location":{"address":"275 Princess St","country":"CA","cross_street":"","formatted_address":"275 Princess St, Kingston ON K7L 1B4","locality":"Kingston","neighborhood":["Kingston"],"postcode":"K7L 1B4","region":"ON"},"name":"Stone City Ales","popularity":0.9329501915708812,"price":2,"rating":9.0},{"categories":[{"id":13034,"name":"Café","icon":{"prefix":"https://ss3.4sqi.net/img/categories_v2/food/cafe_","suffix":".png"}},{"id":13165,"name":"German Restaurant","icon":{"prefix":"https://ss3.4sqi.net/img/categories_v2/food/german_","suffix":".png"}}],"distance":90,"location":{"address":"170 Princess St","country":"CA","cross_street":"at Montreal St","formatted_address":"170 Princess St (at Montreal St), Kingston ON K7L 1B1","locality":"Kingston","neighborhood":["Sydenham"],"postcode":"K7L 1B1","region":"ON"},"name":"Amadeus Cafe","popularity":0.9239189928845101,"price":2,"rating":6.9},{"categories":[{"id":13276,"name":"Sushi Restaurant","icon":{"prefix":"https://ss3.4sqi.net/img/categories_v2/food/sushi_","suffix":".png"}},{"id":13289,"name":"Korean Restaurant","icon":{"prefix":"https://ss3.4sqi.net/img/categories_v2/food/korean_","suffix":".png"}}],"distance":189,"location":{"address":"269 Princess St","country":"CA","cross_street":"","formatted_address":"269 Princess St, Kingston ON K7L 1B4","locality":"Kingston","postcode":"K7L 1B4","region":"ON"},"name":"Hwa-Ki","popularity":0.29064039408866993,"price":2,"rating":7.9},{"categories":[{"id":10026,"name":"Indie Movie Theater","icon":{"prefix":"https://ss3.4sqi.net/img/categories_v2/arts_entertainment/movietheater_","suffix":".png"}}],"distance":215,"location":{"address":"120 Princess St","country":"CA","cross_street":"2nd Floor","formatted_address":"120 Princess St (2nd Floor), Kingston ON K7L 5M6","locality":"Kingston","neighborhood":["Sydenham"],"postcode":"K7L 5M6","region":"ON"},"name":"The Screening Room","popularity":0.8735632183908046,"rating":8.3},{"categories":[{"id":13034,"name":"Café","icon":{"prefix":"https://ss3.4sqi.net/img/categories_v2/food/cafe_","suffix":".png"}},{"id":13035,"name":"Coffee Shop","icon":{"prefix":"https://ss3.4sqi.net/img/categories_v2/food/coffeeshop_","suffix":".png"}},{"id":13065,"name":"Restaurant","icon":{"prefix":"https://ss3.4sqi.net/img/categories_v2/food/default_","suffix":".png"}}],"distance":149,"location":{"address":"251 Princess St","country":"CA","cross_street":"Sydenham Street","formatted_address":"251 Princess St (Sydenham Street), Kingston ON K7L 1B4","locality":"Kingston","neighborhood":["Kingston"],"postcode":"K7L 1B4","region":"ON"},"name":"Balzac's Coffee","popularity":0.9407498631636563,"price":1,"rating":7.3},{"categories":[{"id":13049,"name":"Diner","icon":{"prefix":"https://ss3.4sqi.net/img/categories_v2/food/diner_","suffix":".png"}},{"id":13064,"name":"Pizzeria","icon":{"prefix":"https://ss3.4sqi.net/img/categories_v2/food/pizza_","suffix":".png"}},{"id":13177,"name":"Greek Restaurant","icon":{"prefix":"https://ss3.4sqi.net/img/categories_v2/food/greek_","suffix":".png"}}],"distance":82,"location":{"address":"167 Princess St","country":"CA","cross_street":"","formatted_address":"167 Princess St, Kingston ON K7L 1A9","locality":"Kingston","neighborhood":["Sydenham"],"postcode":"K7L 1A9","region":"ON"},"name":"Grecos Grill & Wine Bar","popularity":0.9131089217296113,"price":2,"rating":6.6},{"categories":[{"id":17117,"name":"Sporting Goods Retail","icon":{"prefix":"https://ss3.4sqi.net/img/categories_v2/shops/sports_outdoors_","suffix":".png"}}],"distance":189,"location":{"address":"270 Princess St","country":"CA","cross_street":"","formatted_address":"270 Princess St, Kingston ON K7L 1B5","locality":"Kingston","neighborhood":["Sydenham"],"postcode":"K7L 1B5","region":"ON"},"name":"Lululemon Athletica","popularity":0.9314449917898193,"rating":7.6},{"categories":[{"id":17035,"name":"Drugstore","icon":{"prefix":"https://ss3.4sqi.net/img/categories_v2/shops/pharmacy_","suffix":".png"}}],"distance":163,"location":{"address":"136 Princess St","country":"CA","cross_street":"at Bagot St","formatted_address":"136 Princess St (at Bagot St), Kingston ON K7L 1A7","locality":"Kingston","neighborhood":["Sydenham"],"postcode":"K7L 1A7","region":"ON"},"name":"Shoppers Drug Mart","popularity":0.972495894909688,"rating":7.2},{"categories":[{"id":17043,"name":"Clothing Store","icon":{"prefix":"https://ss3.4sqi.net/img/categories_v2/shops/apparel_","suffix":".png"}}],"distance":27,"location":{"address":"207 Princess St","country":"CA","formatted_address":"207 Princess St, Kingston ON K7L 1B3","locality":"Kingston","neighborhood":["Sydenham"],"postcode":"K7L 1B3","region":"ON"},"name":"Urban Outfitters","popularity":0.9088669950738916,"rating":5.8},{"categories":[{"id":13000,"name":"Dining and Drinking","icon":{"prefix":"https://ss3.4sqi.net/img/categories_v2/food/default_","suffix":".png"}}],"distance":222,"location":{"address":"281 Princess St","country":"CA","cross_street":"","formatted_address":"281 Princess St, Kingston ON K7L 1B4","locality":"Kingston","postcode":"K7L 1B4","region":"ON"},"name":"NORTHSIDE espresso + kitchen","popularity":0.8457854406130269,"price":1,"rating":7.6},{"categories":[{"id":13065,"name":"Restaurant","icon":{"prefix":"https://ss3.4sqi.net/img/categories_v2/food/default_","suffix":".png"}}],"distance":281,"location":{"address":"93 Princess St","country":"CA","cross_street":"","formatted_address":"93 Princess St, Kingston ON K7L 1A6","locality":"Kingston","neighborhood":["Sydenham"],"postcode":"K7L 1A6","region":"ON"},"name":"Harper's","popularity":0.8856048166392994,"price":2,"rating":8.3},{"categories":[{"id":11057,"name":"Caterer","icon":{"prefix":"https://ss3.4sqi.net/img/categories_v2/shops/foodanddrink_","suffix":".png"}}],"distance":222,"location":{"address":"111 Princess St","country":"CA","cross_street":"btwn Bagot St & Wellington St","formatted_address":"111 Princess St (btwn Bagot St & Wellington St), Kingston ON K7L 1A8","locality":"Kingston","neighborhood":["Sydenham"],"postcode":"K7L 1A8","region":"ON"},"name":"Golden Rooster Delicatessen","popularity":0.942391899288451,"price":1,"rating":7.5},{"categories":[{"id":13068,"name":"American Restaurant","icon":{"prefix":"https://ss3.4sqi.net/img/categories_v2/food/default_","suffix":".png"}}],"distance":111,"location":{"address":"240 Princess St","country":"CA","cross_street":"","formatted_address":"240 Princess St, Kingston ON K7L 1B2","locality":"Kingston","neighborhood":["Sydenham"],"postcode":"K7L 1B2","region":"ON"},"name":"Copper Penny","popularity":0.9038040503557745,"price":2,"rating":6.5},{"categories":[{"id":10004,"name":"Art Gallery","icon":{"prefix":"https://ss3.4sqi.net/img/categories_v2/arts_entertainment/artgallery_","suffix":".png"}}],"distance":30,"location":{"address":"198 Princess St","country":"CA","cross_street":"Montreal Street","formatted_address":"198 Princess St (Montreal Street), Kingston ON K7L 1B2","locality":"Kingston","neighborhood":["Sydenham"],"postcode":"K7L 1B2","region":"ON"},"name":"Kingston Frameworks","popularity":0.8357963875205254},{"categories":[{"id":19014,"name":"Hotel","icon":{"prefix":"https://ss3.4sqi.net/img/categories_v2/travel/hotel_","suffix":".png"}},{"id":19016,"name":"Lodge","icon":{"prefix":"https://ss3.4sqi.net/img/categories_v2/travel/default_","suffix":".png"}}],"distance":33,"location":{"address":"46 Montreal St","country":"CA","formatted_address":"46 Montreal St, Kingston ON K7K 3E6","locality":"Kingston","neighborhood":["Sydenham"],"postcode":"K7K 3E6","region":"ON"},"name":"Plaza Hotel","popularity":0.7837985769020251,"price":3},{"categories":[{"id":13276,"name":"Sushi Restaurant","icon":{"prefix":"https://ss3.4sqi.net/img/categories_v2/food/sushi_","suffix":".png"}},{"id":13289,"name":"Korean Restaurant","icon":{"prefix":"https://ss3.4sqi.net/img/categories_v2/food/korean_","suffix":".png"}}],"distance":217,"location":{"address":"120 Princess St","country":"CA","cross_street":"at Wellington St.","formatted_address":"120 Princess St (at Wellington St.), Kingston ON K7L 5M6","locality":"Kingston","neighborhood":["Kingston"],"postcode":"K7L 5M6","region":"ON"},"name":"Ta Ke Sushi","popularity":0.22099069512862615,"price":3,"rating":7.3},{"categories":[{"id":13035,"name":"Coffee Shop","icon":{"prefix":"https://ss3.4sqi.net/img/categories_v2/food/coffeeshop_","suffix":".png"}}],"distance":275,"location":{"address":"95 Princess St","address_extended":"# 2","country":"CA","cross_street":"at Wellington St","formatted_address":"95 Princess St (at Wellington St), Kingston ON K7L 1A6","locality":"Kingston","neighborhood":["Sydenham"],"postcode":"K7L 1A6","region":"ON"},"name":"Starbucks","popularity":0.9429392446633826,"price":1,"rating":7.9},{"categories":[{"id":17119,"name":"Bicycle Store","icon":{"prefix":"https://ss3.4sqi.net/img/categories_v2/shops/bikeshop_","suffix":".png"}}],"distance":49,"location":{"address":"332A Barrie St","country":"CA","cross_street":"btw Princess & Queen","formatted_address":"332A Barrie St (btw Princess & Queen), Kingston ON K7K 3T1","locality":"Kingston","neighborhood":["Queens"],"postcode":"K7K 3T1","region":"ON"},"name":"Racquet Science","popularity":0.180623973727422},{"categories":[{"id":13314,"name":"New American Restaurant","icon":{"prefix":"https://ss3.4sqi.net/img/categories_v2/food/newamerican_","suffix":".png"}}],"distance":77,"location":{"address":"226 Princess St","country":"CA","formatted_address":"226 Princess St, Kingston ON K7L 1B2","locality":"Kingston","postcode":"K7L 1B2","region":"ON"},"name":"Megalo's Restaurants","popularity":0.9066776135741653,"price":2,"rating":5.9},{"categories":[{"id":10032,"name":"Night Club","icon":{"prefix":"https://ss3.4sqi.net/img/categories_v2/nightlife/nightclub_","suffix":".png"}},{"id":13009,"name":"Cocktail Bar","icon":{"prefix":"https://ss3.4sqi.net/img/categories_v2/nightlife/cocktails_","suffix":".png"}},{"id":13065,"name":"Restaurant","icon":{"prefix":"https://ss3.4sqi.net/img/categories_v2/food/default_","suffix":".png"}}],"distance":52,"location":{"address":"184 Princess St","country":"CA","cross_street":"Montreal St.","formatted_address":"184 Princess St (Montreal St.), Kingston ON K7L 1B1","locality":"Kingston","neighborhood":["Kingston"],"postcode":"K7L 1B1","region":"ON"},"name":"Union Kitchen + Cocktails","popularity":0.925424192665572,"price":3},{"categories":[{"id":13099,"name":"Chinese Restaurant","icon":{"prefix":"https://ss3.4sqi.net/img/categories_v2/food/asian_","suffix":".png"}}],"distance":54,"location":{"address":"185 Princess St","country":"CA","cross_street":"","formatted_address":"185 Princess St, Kingston ON K7L 1A9","locality":"Kingston","neighborhood":["Kingston"],"postcode":"K7L 1A9","region":"ON"},"name":"Northern Chinese Barbeque","popularity":0.8854679802955665,"price":1},{"categories":[{"id":13068,"name":"American Restaurant","icon":{"prefix":"https://ss3.4sqi.net/img/categories_v2/food/default_","suffix":".png"}},{"id":13072,"name":"Asian Restaurant","icon":{"prefix":"https://ss3.4sqi.net/img/categories_v2/food/asian_","suffix":".png"}},{"id":13352,"name":"Thai Restaurant","icon":{"prefix":"https://ss3.4sqi.net/img/categories_v2/food/thai_","suffix":".png"}}],"distance":94,"location":{"address":"161 Princess St","country":"CA","cross_street":"Bagot St","formatted_address":"161 Princess St (Bagot St), Kingston ON K7L 1A9","locality":"Kingston","neighborhood":["Sydenham"],"postcode":"K7L 1A9","region":"ON"},"name":"Mango Thai & Pan-Asian Cuisine","popularity":0.8700054734537493,"price":2,"rating":6.0},{"categories":[{"id":11075,"name":"Tattoo Parlor","icon":{"prefix":"https://ss3.4sqi.net/img/categories_v2/shops/tattoos_","suffix":".png"}}],"distance":59,"location":{"address":"159 Queen St","country":"CA","cross_street":"","formatted_address":"159 Queen St, Kingston ON K7K 1A9","locality":"Kingston","postcode":"K7K 1A9","region":"ON"},"name":"True North Tattoo","popularity":0.8648056923918993},{"categories":[{"id":13064,"name":"Pizzeria","icon":{"prefix":"https://ss3.4sqi.net/img/categories_v2/food/pizza_","suffix":".png"}}],"distance":299,"location":{"address":"91 Princess St","country":"CA","cross_street":"Wellington Street","formatted_address":"91 Princess St (Wellington Street), Kingston ON K7L 1A6","locality":"Kingston","neighborhood":["Kingston"],"postcode":"K7L 1A6","region":"ON"},"name":"Score Pizza","popularity":0.8481116584564861,"price":1,"rating":7.9},{"categories":[{"id":13003,"name":"Bar","icon":{"prefix":"https://ss3.4sqi.net/img/categories_v2/nightlife/pub_","suffix":".png"}},{"id":13065,"name":"Restaurant","icon":{"prefix":"https://ss3.4sqi.net/img/categories_v2/food/default_","suffix":".png"}}],"distance":258,"location":{"address":"293 Princess St","country":"CA","cross_street":"","formatted_address":"293 Princess St, Kingston ON K7L 1B4","locality":"Kingston","postcode":"K7L 1B4","region":"ON"},"name":"The Alibi","popularity":0.8166392993979201,"price":2,"rating":7.4},{"categories":[{"id":13018,"name":"Pub","icon":{"prefix":"https://ss3.4sqi.net/img/categories_v2/nightlife/pub_","suffix":".png"}},{"id":13065,"name":"Restaurant","icon":{"prefix":"https://ss3.4sqi.net/img/categories_v2/food/default_","suffix":".png"}}],"distance":333,"location":{"address":"76 Princess St","country":"CA","formatted_address":"76 Princess St, Kingston ON K7L 1A5","locality":"Kingston","neighborhood":["Sydenham"],"postcode":"K7L 1A5","region":"ON"},"name":"The Toucan","popularity":0.9392446633825944,"price":1,"rating":8.3},{"categories":[{"id":13099,"name":"Chinese Restaurant","icon":{"prefix":"https://ss3.4sqi.net/img/categories_v2/food/asian_","suffix":".png"}},{"id":13379,"name":"Vietnamese Restaurant","icon":{"prefix":"https://ss3.4sqi.net/img/categories_v2/food/vietnamese_","suffix":".png"}}],"distance":137,"location":{"address":"272 Bagot St","country":"CA","cross_street":"btwn Brock St. and Princess St.","formatted_address":"272 Bagot St (btwn Brock St. and Princess St.), Kingston ON K7L 3G5","locality":"Kingston","neighborhood":["Sydenham"],"postcode":"K7L 3G5","region":"ON"},"name":"Saigon Delights","popularity":0.8798576902025178,"price":2,"rating":6.3},{"categories":[{"id":13049,"name":"Diner","icon":{"prefix":"https://ss3.4sqi.net/img/categories_v2/food/diner_","suffix":".png"}},{"id":13068,"name":"American Restaurant","icon":{"prefix":"https://ss3.4sqi.net/img/categories_v2/food/default_","suffix":".png"}},{"id":13314,"name":"New American Restaurant","icon":{"prefix":"https://ss3.4sqi.net/img/categories_v2/food/newamerican_","suffix":".png"}}],"distance":345,"location":{"address":"68R Princess Ave","address_extended":"# 4","country":"CA","cross_street":"King St","formatted_address":"68R Princess Ave (King St), Kingston ON K7L 1A5","locality":"Kingston","neighborhood":["Sydenham"],"postcode":"K7L 1A5","region":"ON"},"name":"Chez Piggy","popularity":0.9333607006020799,"price":4,"rating":8.4},{"categories":[{"id":13027,"name":"Bistro","icon":{"prefix":"https://ss3.4sqi.net/img/categories_v2/food/default_","suffix":".png"}},{"id":13034,"name":"Café","icon":{"prefix":"https://ss3.4sqi.net/img/categories_v2/food/cafe_","suffix":".png"}},{"id":13145,"name":"Fast Food Restaurant","icon":{"prefix":"https://ss3.4sqi.net/img/categories_v2/food/fastfood_","suffix":".png"}}],"distance":261,"location":{"address":"297 Princess St","country":"CA","cross_street":"at Clergy St. E","formatted_address":"297 Princess St (at Clergy St. E), Kingston ON K7L 1B4","locality":"Kingston","neighborhood":["Sydenham"],"postcode":"K7L 1B4","region":"ON"},"name":"Geneva Crepe Cafe","popularity":0.9055829228243021,"price":1,"rating":7.4},{"categories":[{"id":11166,"name":"Tailor","icon":{"prefix":"https://ss3.4sqi.net/img/categories_v2/shops/apparel_","suffix":".png"}}],"distance":70,"location":{"address":"170 Princess St","country":"CA","formatted_address":"170 Princess St, Kingston ON K7L 1B1","locality":"Kingston","neighborhood":["Sydenham"],"postcode":"K7L 1B1","region":"ON"},"name":"Andrei Master Tailors","popularity":0.07334428024083196},{"categories":[{"id":11045,"name":"Bank","icon":{"prefix":"https://ss3.4sqi.net/img/categories_v2/shops/financial_","suffix":".png"}}],"distance":161,"location":{"address":"164 Brock St","address_extended":"# 144","country":"CA","cross_street":"","formatted_address":"164 Brock St, Kingston ON K7L 5G2","locality":"Kingston","neighborhood":["Sydenham"],"postcode":"K7L 5G2","region":"ON"},"name":"CIBC","popularity":0.8754789272030651,"rating":6.5},{"categories":[{"id":13065,"name":"Restaurant","icon":{"prefix":"https://ss3.4sqi.net/img/categories_v2/food/default_","suffix":".png"}}],"distance":336,"location":{"address":"69 Brock St","country":"CA","cross_street":"btw King St E & Wellington","formatted_address":"69 Brock St (btw King St E & Wellington), Kingston ON K7L 1R8","locality":"Kingston","neighborhood":["Sydenham"],"postcode":"K7L 1R8","region":"ON"},"name":"Le Chien Noir","popularity":0.8946360153256705,"price":1,"rating":8.1},{"categories":[{"id":17035,"name":"Drugstore","icon":{"prefix":"https://ss3.4sqi.net/img/categories_v2/shops/pharmacy_","suffix":".png"}}],"distance":88,"location":{"address":"168 Princess St","country":"CA","cross_street":"Brock St","formatted_address":"168 Princess St (Brock St), Kingston ON K7L 1B1","locality":"Kingston","postcode":"K7L 1B1","region":"ON"},"name":"Graham's Pharmacy","popularity":0.7493158182813355},{"categories":[{"id":13276,"name":"Sushi Restaurant","icon":{"prefix":"https://ss3.4sqi.net/img/categories_v2/food/sushi_","suffix":".png"}},{"id":13338,"name":"Seafood Restaurant","icon":{"prefix":"https://ss3.4sqi.net/img/categories_v2/food/seafood_","suffix":".png"}}],"distance":362,"location":{"address":"66 Princess St","country":"CA","cross_street":"at King St E.","formatted_address":"66 Princess St (at King St E.), Kingston ON K7L 1A5","locality":"Kingston","neighborhood":["Sydenham"],"postcode":"K7L 1A5","region":"ON"},"name":"Sima Sushi","popularity":0.900519978106185,"price":2,"rating":8.1},{"categories":[{"id":13025,"name":"Wine Bar","icon":{"prefix":"https://ss3.4sqi.net/img/categories_v2/food/winery_","suffix":".png"}},{"id":13347,"name":"Tapas Restaurant","icon":{"prefix":"https://ss3.4sqi.net/img/categories_v2/food/tapas_","suffix":".png"}}],"distance":407,"location":{"address":"331 King St E","country":"CA","cross_street":"","formatted_address":"331 King St E, Kingston ON K7L 3B5","locality":"Kingston","neighborhood":["Kingston"],"postcode":"K7L 3B5","region":"ON"},"name":"Tango Nuevo","popularity":0.9270662287903667,"price":3,"rating":8.9},{"categories":[{"id":13018,"name":"Pub","icon":{"prefix":"https://ss3.4sqi.net/img/categories_v2/nightlife/pub_","suffix":".png"}},{"id":13065,"name":"Restaurant","icon":{"prefix":"https://ss3.4sqi.net/img/categories_v2/food/default_","suffix":".png"}}],"distance":276,"location":{"address":"207 Wellington St","country":"CA","cross_street":"Queen","formatted_address":"207 Wellington St (Queen), Kingston ON K7K 2Y6","locality":"Kingston","neighborhood":["Sydenham"],"postcode":"K7K 2Y6","region":"ON"},"name":"The Iron Duke on Wellington","popularity":0.8981937602627258,"price":1,"rating":7.1},{"categories":[{"id":12101,"name":"Church","icon":{"prefix":"https://ss3.4sqi.net/img/categories_v2/building/religious_church_","suffix":".png"}}],"distance":109,"location":{"address":"137 Queen St","country":"CA","formatted_address":"137 Queen St, Kingston ON K7K 1A8","locality":"Kingston","neighborhood":["Sydenham"],"postcode":"K7K 1A8","region":"ON"},"name":"St Paul's Anglican Church","popularity":0.9363711001642037},{"categories":[{"id":13018,"name":"Pub","icon":{"prefix":"https://ss3.4sqi.net/img/categories_v2/nightlife/pub_","suffix":".png"}},{"id":13065,"name":"Restaurant","icon":{"prefix":"https://ss3.4sqi.net/img/categories_v2/food/default_","suffix":".png"}}],"distance":396,"location":{"address":"343 King St E","country":"CA","formatted_address":"343 King St E, Kingston ON K7L 3B5","locality":"Kingston","neighborhood":["Kingston"],"postcode":"K7L 3B5","region":"ON"},"name":"Sir John's Public House","popularity":0.8486590038314177,"price":1,"rating":8.4},{"categories":[{"id":13002,"name":"Bakery","icon":{"prefix":"https://ss3.4sqi.net/img/categories_v2/food/bakery_","suffix":".png"}},{"id":13049,"name":"Diner","icon":{"prefix":"https://ss3.4sqi.net/img/categories_v2/food/diner_","suffix":".png"}}],"distance":423,"location":{"address":"44 Princess St","country":"CA","formatted_address":"44 Princess St, Kingston ON K7L 1A4","locality":"Kingston","neighborhood":["Sydenham"],"postcode":"K7L 1A4","region":"ON"},"name":"Pan Chancho Bakery","popularity":0.9662014230979749,"price":2,"rating":9.1},{"categories":[{"id":10035,"name":"Performing Arts Venue","icon":{"prefix":"https://ss3.4sqi.net/img/categories_v2/arts_entertainment/performingarts_","suffix":".png"}},{"id":13034,"name":"Café","icon":{"prefix":"https://ss3.4sqi.net/img/categories_v2/food/cafe_","suffix":".png"}},{"id":13065,"name":"Restaurant","icon":{"prefix":"https://ss3.4sqi.net/img/categories_v2/food/default_","suffix":".png"}}],"distance":328,"location":{"address":"73 Brock St","country":"CA","formatted_address":"73 Brock St, Kingston ON K7L 1R8","locality":"Kingston","neighborhood":["Kingston"],"postcode":"K7L 1R8","region":"ON"},"name":"Musiikki","popularity":0.8467432950191571,"rating":7.5},{"categories":[{"id":17052,"name":"Women's Store","icon":{"prefix":"https://ss3.4sqi.net/img/categories_v2/shops/apparel_women_","suffix":".png"}}],"distance":115,"location":{"address":"169 Princess St","country":"CA","cross_street":"","formatted_address":"169 Princess St, Kingston ON K7L 1A9","locality":"Kingston","postcode":"K7L 1A9","region":"ON"},"name":"Overstock","popularity":0.17364532019704434},{"categories":[{"id":19014,"name":"Hotel","icon":{"prefix":"https://ss3.4sqi.net/img/categories_v2/travel/hotel_","suffix":".png"}},{"id":19015,"name":"Inn","icon":{"prefix":"https://ss3.4sqi.net/img/categories_v2/travel/hotel_","suffix":".png"}}],"distance":202,"location":{"address":"125 Brock St","country":"CA","cross_street":"","formatted_address":"125 Brock St, Kingston ON K7L 1S1","locality":"Kingston","neighborhood":["Sydenham"],"postcode":"K7L 1S1","region":"ON"},"name":"The Queen's Inn","popularity":0.837712096332786,"price":1,"rating":6.4},{"categories":[{"id":13049,"name":"Diner","icon":{"prefix":"https://ss3.4sqi.net/img/categories_v2/food/diner_","suffix":".png"}},{"id":13096,"name":"Cambodian Restaurant","icon":{"prefix":"https://ss3.4sqi.net/img/categories_v2/food/default_","suffix":".png"}},{"id":13352,"name":"Thai Restaurant","icon":{"prefix":"https://ss3.4sqi.net/img/categories_v2/food/thai_","suffix":".png"}}],"distance":119,"location":{"address":"161 Brock St","country":"CA","cross_street":"Brock and Montreal","formatted_address":"161 Brock St (Brock and Montreal), Kingston ON K7L 1S2","locality":"Kingston","neighborhood":["Sydenham"],"postcode":"K7L 1S2","region":"ON"},"name":"Cambodiana Restaurant","popularity":0.5192939244663383,"price":2},{"categories":[{"id":17018,"name":"Bookstore","icon":{"prefix":"https://ss3.4sqi.net/img/categories_v2/shops/bookstore_","suffix":".png"}}],"distance":121,"location":{"address":"156 Princess St","country":"CA","cross_street":"Princess & Bagot","formatted_address":"156 Princess St (Princess & Bagot), Kingston ON K7L 1B1","locality":"Kingston","neighborhood":["Sydenham"],"postcode":"K7L 1B1","region":"ON"},"name":"Novel Idea","popularity":0.8258073344280241},{"categories":[{"id":13032,"name":"Cafes, Coffee, and Tea Houses","icon":{"prefix":"https://ss3.4sqi.net/img/categories_v2/food/default_","suffix":".png"}}],"distance":360,"location":{"address":"61 Brock St","country":"CA","cross_street":"btwn King & Wellington St.","formatted_address":"61 Brock St (btwn King & Wellington St.), Kingston ON K7L 1R8","locality":"Kingston","neighborhood":["Sydenham"],"postcode":"K7L 1R8","region":"ON"},"name":"Cooke's Fine Foods and Coffee","popularity":0.8793103448275862,"rating":7.7},{"categories":[{"id":11027,"name":"Computer Repair Service","icon":{"prefix":"https://ss3.4sqi.net/img/categories_v2/shops/default_","suffix":".png"}}],"distance":125,"location":{"address":"303 Bagot St","address_extended":"Suite 16A","country":"CA","cross_street":"BTW Princess Street","formatted_address":"303 Bagot St (BTW Princess Street), Kingston ON K7K 5W7","locality":"Kingston","neighborhood":["Sydenham"],"postcode":"K7K 5W7","region":"ON"},"name":"Kingston Online Svc","popularity":0.4393814997263273}],"context":{"geo_bounds":{"circle":{"center":{"latitude":44.232344187881836,"longitude":-76.48559630147832},"radius":1000}}}}